{
"type": "FeatureCollection",
                                                                                
"features": [
{ "type": "Feature", "properties": {"city": "Beijing", "story": "Xiaomi"}, "geometry": { "type": "Point", "coordinates": [ 116.3917, 39.9139 ] } }
,
{ "type": "Feature", "properties": {"city": "Beirut", "story": "Hezbollah"}, "geometry": { "type": "Point", "coordinates": [ 35.5131, 33.8869 ] } }
,
{ "type": "Feature", "properties": {"city": "Helsinki", "story": "Supercell"}, "geometry": { "type": "Point", "coordinates": [ 24.9375, 60.1708 ] } }
,
{ "type": "Feature", "properties": {"city": "Nairobi", "story": "Africa"}, "geometry": { "type": "Point", "coordinates": [ 36.8167, -1.2833 ] } }
,
{ "type": "Feature", "properties": {"city": "Lyon", "story": "Tennis"}, "geometry": { "type": "Point", "coordinates": [ 4.8400, 45.7600 ] } }
,
{ "type": "Feature", "properties": {"city": "London", "story": "Worms"}, "geometry": { "type": "Point", "coordinates": [ -0.1275, 51.5072 ] } }
,
{ "type": "Feature", "properties": {"city": "Reykjavik", "story": "Nerd Memorial"}, "geometry": { "type": "Point", "coordinates": [ -21.9333, 64.1333 ] } }
,
{ "type": "Feature", "properties": {"city": "Rio de Janeiro", "story": "MLB/BAM"}, "geometry": { "type": "Point", "coordinates": [ -43.1964, -22.9083] } }
,
{ "type": "Feature", "properties": {"city": "Cambridge, MA", "story": "Nuclear"}, "geometry": { "type": "Point", "coordinates": [ -71.1106, 42.3736 ] } }
,
{ "type": "Feature", "properties": {"city": "Denver, CO", "story": "Quantified"}, "geometry": { "type": "Point", "coordinates": [ -104.9847, 39.7392] } }
,
{ "type": "Feature", "properties": {"city": "Parker, CO", "story": "Gadget"}, "geometry": { "type": "Point", "coordinates": [ -104.7658, 39.5194 ] } }
,
{ "type": "Feature", "properties": {"city": "Parker, AZ", "story": "Wheelchair"}, "geometry": { "type": "Point", "coordinates": [-114.2897, 34.1447 ] } }
,
{ "type": "Feature", "properties": {"city": "Vandenberg AFB", "story": "Satellite"}, "geometry": { "type": "Point", "coordinates": [ -120.5681, 34.7328 ] } }
,
{ "type": "Feature", "properties": {"city": "DMZ", "story": "Balloons"}, "geometry": { "type": "Point", "coordinates": [ 128.6463, 37.9651 ] } }
]
}
